[
  {"code":"NS1","name":"Jurong East","lat":1.333207,"lng":103.742308,"line":"NSL"},
  {"code":"NS2","name":"Bukit Batok","lat":1.349069,"lng":103.749596,"line":"NSL"},
  {"code":"NS3","name":"Bukit Gombak","lat":1.359043,"lng":103.751863,"line":"NSL"},
  {"code":"NS4","name":"Choa Chu Kang","lat":1.385417,"lng":103.744316,"line":"NSL"},
  {"code":"NS5","name":"Yew Tee","lat":1.397383,"lng":103.747523,"line":"NSL"},
  {"code":"NS7","name":"Kranji","lat":1.425178,"lng":103.762187,"line":"NSL"},
  {"code":"NS8","name":"Marsiling","lat":1.432521,"lng":103.774074,"line":"NSL"},
  {"code":"NS9","name":"Woodlands","lat":1.436819,"lng":103.786528,"line":"NSL"},
  {"code":"NS10","name":"Admiralty","lat":1.440585,"lng":103.800998,"line":"NSL"},
  {"code":"NS11","name":"Sembawang","lat":1.449051,"lng":103.820050,"line":"NSL"},
  {"code":"NS12","name":"Canberra","lat":1.443076,"lng":103.829703,"line":"NSL"},
  {"code":"NS13","name":"Yishun","lat":1.429443,"lng":103.835005,"line":"NSL"},
  {"code":"NS14","name":"Khatib","lat":1.417383,"lng":103.832980,"line":"NSL"},
  {"code":"NS15","name":"Yio Chu Kang","lat":1.381683,"lng":103.844991,"line":"NSL"},
  {"code":"NS16","name":"Ang Mo Kio","lat":1.369933,"lng":103.849558,"line":"NSL"},
  {"code":"NS17","name":"Bishan","lat":1.350839,"lng":103.848144,"line":"NSL"},
  {"code":"NS18","name":"Braddell","lat":1.340469,"lng":103.846755,"line":"NSL"},
  {"code":"NS19","name":"Toa Payoh","lat":1.332597,"lng":103.847577,"line":"NSL"},
  {"code":"NS20","name":"Novena","lat":1.320441,"lng":103.843825,"line":"NSL"},
  {"code":"NS21","name":"Newton","lat":1.312375,"lng":103.837984,"line":"NSL"},
  {"code":"NS22","name":"Orchard","lat":1.302422,"lng":103.835312,"line":"NSL"},
  {"code":"NS23","name":"Somerset","lat":1.300264,"lng":103.839086,"line":"NSL"},
  {"code":"NS24","name":"Dhoby Ghaut","lat":1.298689,"lng":103.846172,"line":"NSL"},
  {"code":"NS25","name":"City Hall","lat":1.292989,"lng":103.852543,"line":"NSL"},
  {"code":"NS26","name":"Raffles Place","lat":1.283933,"lng":103.851463,"line":"NSL"},
  {"code":"NS27","name":"Marina Bay","lat":1.276427,"lng":103.854592,"line":"NSL"},
  {"code":"NS28","name":"Marina South Pier","lat":1.271027,"lng":103.862448,"line":"NSL"},
  {"code":"EW1","name":"Pasir Ris","lat":1.373008,"lng":103.949265,"line":"EWL"},
  {"code":"EW2","name":"Tampines","lat":1.353284,"lng":103.945229,"line":"EWL"},
  {"code":"EW3","name":"Simei","lat":1.343197,"lng":103.953377,"line":"EWL"},
  {"code":"EW4","name":"Tanah Merah","lat":1.327187,"lng":103.946349,"line":"EWL"},
  {"code":"EW5","name":"Bedok","lat":1.324021,"lng":103.930036,"line":"EWL"},
  {"code":"EW6","name":"Kembangan","lat":1.321038,"lng":103.912949,"line":"EWL"},
  {"code":"EW7","name":"Eunos","lat":1.319779,"lng":103.903252,"line":"EWL"},
  {"code":"EW8","name":"Paya Lebar","lat":1.318186,"lng":103.893063,"line":"EWL"},
  {"code":"EW9","name":"Aljunied","lat":1.316433,"lng":103.882906,"line":"EWL"},
  {"code":"EW10","name":"Kallang","lat":1.311489,"lng":103.871387,"line":"EWL"},
  {"code":"EW11","name":"Lavender","lat":1.307370,"lng":103.862768,"line":"EWL"},
  {"code":"EW12","name":"Bugis","lat":1.300191,"lng":103.856110,"line":"EWL"},
  {"code":"EW13","name":"City Hall","lat":1.292989,"lng":103.852543,"line":"EWL"},
  {"code":"EW14","name":"Raffles Place","lat":1.283933,"lng":103.851463,"line":"EWL"},
  {"code":"EW15","name":"Tanjong Pagar","lat":1.276561,"lng":103.845863,"line":"EWL"},
  {"code":"EW16","name":"Outram Park","lat":1.280225,"lng":103.839486,"line":"EWL"},
  {"code":"EW17","name":"Tiong Bahru","lat":1.286103,"lng":103.827019,"line":"EWL"},
  {"code":"EW18","name":"Redhill","lat":1.289635,"lng":103.816749,"line":"EWL"},
  {"code":"EW19","name":"Queenstown","lat":1.294905,"lng":103.806037,"line":"EWL"},
  {"code":"EW20","name":"Commonwealth","lat":1.302509,"lng":103.798312,"line":"EWL"},
  {"code":"EW21","name":"Buona Vista","lat":1.307207,"lng":103.790555,"line":"EWL"},
  {"code":"EW22","name":"Dover","lat":1.311305,"lng":103.778638,"line":"EWL"},
  {"code":"EW23","name":"Clementi","lat":1.315135,"lng":103.765171,"line":"EWL"},
  {"code":"EW24","name":"Jurong East","lat":1.333207,"lng":103.742308,"line":"EWL"},
  {"code":"EW25","name":"Chinese Garden","lat":1.342353,"lng":103.732597,"line":"EWL"},
  {"code":"EW26","name":"Lakeside","lat":1.344259,"lng":103.720749,"line":"EWL"},
  {"code":"EW27","name":"Boon Lay","lat":1.338604,"lng":103.706065,"line":"EWL"},
  {"code":"EW28","name":"Pioneer","lat":1.337587,"lng":103.697322,"line":"EWL"},
  {"code":"EW29","name":"Joo Koon","lat":1.327717,"lng":103.678305,"line":"EWL"},
  {"code":"EW30","name":"Gul Circle","lat":1.319471,"lng":103.660503,"line":"EWL"},
  {"code":"EW31","name":"Tuas Crescent","lat":1.321027,"lng":103.649078,"line":"EWL"},
  {"code":"EW32","name":"Tuas West Road","lat":1.330239,"lng":103.639614,"line":"EWL"},
  {"code":"EW33","name":"Tuas Link","lat":1.340882,"lng":103.636991,"line":"EWL"},
  {"code":"NE1","name":"HarbourFront","lat":1.265467,"lng":103.821446,"line":"NEL"},
  {"code":"NE3","name":"Outram Park","lat":1.280225,"lng":103.839486,"line":"NEL"},
  {"code":"NE4","name":"Chinatown","lat":1.284827,"lng":103.843577,"line":"NEL"},
  {"code":"NE5","name":"Clarke Quay","lat":1.288280,"lng":103.846555,"line":"NEL"},
  {"code":"NE6","name":"Dhoby Ghaut","lat":1.298689,"lng":103.846172,"line":"NEL"},
  {"code":"NE7","name":"Little India","lat":1.306800,"lng":103.849000,"line":"NEL"},
  {"code":"NE8","name":"Farrer Park","lat":1.312360,"lng":103.854210,"line":"NEL"},
  {"code":"NE9","name":"Boon Keng","lat":1.319335,"lng":103.861569,"line":"NEL"},
  {"code":"NE10","name":"Potong Pasir","lat":1.331303,"lng":103.869059,"line":"NEL"},
  {"code":"NE11","name":"Woodleigh","lat":1.339190,"lng":103.870818,"line":"NEL"},
  {"code":"NE12","name":"Serangoon","lat":1.349706,"lng":103.873574,"line":"NEL"},
  {"code":"NE13","name":"Kovan","lat":1.360180,"lng":103.885000,"line":"NEL"},
  {"code":"NE14","name":"Hougang","lat":1.371292,"lng":103.892380,"line":"NEL"},
  {"code":"NE15","name":"Buangkok","lat":1.382878,"lng":103.893122,"line":"NEL"},
  {"code":"NE16","name":"Sengkang","lat":1.391641,"lng":103.895560,"line":"NEL"},
  {"code":"NE17","name":"Punggol","lat":1.405079,"lng":103.902342,"line":"NEL"},
  {"code":"CC1","name":"Dhoby Ghaut","lat":1.298689,"lng":103.846172,"line":"CCL"},
  {"code":"CC2","name":"Bras Basah","lat":1.296862,"lng":103.850667,"line":"CCL"},
  {"code":"CC3","name":"Esplanade","lat":1.293489,"lng":103.855362,"line":"CCL"},
  {"code":"CC4","name":"Promenade","lat":1.292334,"lng":103.860662,"line":"CCL"},
  {"code":"CC5","name":"Nicoll Highway","lat":1.299711,"lng":103.863648,"line":"CCL"},
  {"code":"CC6","name":"Stadium","lat":1.302826,"lng":103.875317,"line":"CCL"},
  {"code":"CC7","name":"Mountbatten","lat":1.306202,"lng":103.882531,"line":"CCL"},
  {"code":"CC8","name":"Dakota","lat":1.308292,"lng":103.888307,"line":"CCL"},
  {"code":"CC9","name":"Paya Lebar","lat":1.318186,"lng":103.893063,"line":"CCL"},
  {"code":"CC10","name":"MacPherson","lat":1.326840,"lng":103.889989,"line":"CCL"},
  {"code":"CC11","name":"Tai Seng","lat":1.335383,"lng":103.887965,"line":"CCL"},
  {"code":"CC12","name":"Bartley","lat":1.342501,"lng":103.880178,"line":"CCL"},
  {"code":"CC13","name":"Serangoon","lat":1.349706,"lng":103.873574,"line":"CCL"},
  {"code":"CC14","name":"Lorong Chuan","lat":1.351531,"lng":103.864132,"line":"CCL"},
  {"code":"CC15","name":"Bishan","lat":1.350839,"lng":103.848144,"line":"CCL"},
  {"code":"CC16","name":"Marymount","lat":1.348707,"lng":103.839423,"line":"CCL"},
  {"code":"CC17","name":"Caldecott","lat":1.337246,"lng":103.839505,"line":"CCL"},
  {"code":"CC19","name":"Botanic Gardens","lat":1.322387,"lng":103.815385,"line":"CCL"},
  {"code":"CC20","name":"Farrer Road","lat":1.317511,"lng":103.807573,"line":"CCL"},
  {"code":"CC21","name":"Holland Village","lat":1.311352,"lng":103.796073,"line":"CCL"},
  {"code":"CC22","name":"Buona Vista","lat":1.307207,"lng":103.790555,"line":"CCL"},
  {"code":"CC23","name":"one-north","lat":1.299474,"lng":103.787177,"line":"CCL"},
  {"code":"CC24","name":"Kent Ridge","lat":1.293370,"lng":103.784400,"line":"CCL"},
  {"code":"CC25","name":"Haw Par Villa","lat":1.282571,"lng":103.781737,"line":"CCL"},
  {"code":"CC26","name":"Pasir Panjang","lat":1.276214,"lng":103.791359,"line":"CCL"},
  {"code":"CC27","name":"Labrador Park","lat":1.272190,"lng":103.802654,"line":"CCL"},
  {"code":"CC28","name":"Telok Blangah","lat":1.270706,"lng":103.809772,"line":"CCL"},
  {"code":"CC29","name":"HarbourFront","lat":1.265467,"lng":103.821446,"line":"CCL"},
  {"code":"DT1","name":"Bukit Panjang","lat":1.378566,"lng":103.761613,"line":"DTL"},
  {"code":"DT2","name":"Cashew","lat":1.369811,"lng":103.764566,"line":"DTL"},
  {"code":"DT3","name":"Hillview","lat":1.362345,"lng":103.767418,"line":"DTL"},
  {"code":"DT5","name":"Beauty World","lat":1.341223,"lng":103.775794,"line":"DTL"},
  {"code":"DT6","name":"King Albert Park","lat":1.335893,"lng":103.783236,"line":"DTL"},
  {"code":"DT7","name":"Sixth Avenue","lat":1.330858,"lng":103.796907,"line":"DTL"},
  {"code":"DT8","name":"Tan Kah Kee","lat":1.325701,"lng":103.807755,"line":"DTL"},
  {"code":"DT9","name":"Botanic Gardens","lat":1.322387,"lng":103.815385,"line":"DTL"},
  {"code":"DT10","name":"Stevens","lat":1.320066,"lng":103.826026,"line":"DTL"},
  {"code":"DT11","name":"Newton","lat":1.312375,"lng":103.837984,"line":"DTL"},
  {"code":"DT12","name":"Little India","lat":1.306800,"lng":103.849000,"line":"DTL"},
  {"code":"DT13","name":"Rochor","lat":1.303661,"lng":103.852598,"line":"DTL"},
  {"code":"DT14","name":"Bugis","lat":1.300191,"lng":103.856110,"line":"DTL"},
  {"code":"DT15","name":"Promenade","lat":1.292334,"lng":103.860662,"line":"DTL"},
  {"code":"DT16","name":"Bayfront","lat":1.281874,"lng":103.859080,"line":"DTL"},
  {"code":"DT17","name":"Downtown","lat":1.279446,"lng":103.852940,"line":"DTL"},
  {"code":"DT18","name":"Telok Ayer","lat":1.282055,"lng":103.848606,"line":"DTL"},
  {"code":"DT19","name":"Chinatown","lat":1.284827,"lng":103.843577,"line":"DTL"},
  {"code":"DT20","name":"Fort Canning","lat":1.292473,"lng":103.844318,"line":"DTL"},
  {"code":"DT21","name":"Bencoolen","lat":1.298918,"lng":103.850354,"line":"DTL"},
  {"code":"DT22","name":"Jalan Besar","lat":1.305171,"lng":103.855296,"line":"DTL"},
  {"code":"DT23","name":"Bendemeer","lat":1.313672,"lng":103.862978,"line":"DTL"},
  {"code":"DT24","name":"Geylang Bahru","lat":1.321301,"lng":103.871801,"line":"DTL"},
  {"code":"DT25","name":"Mattar","lat":1.326877,"lng":103.883248,"line":"DTL"},
  {"code":"DT26","name":"MacPherson","lat":1.326840,"lng":103.889989,"line":"DTL"},
  {"code":"DT27","name":"Ubi","lat":1.329977,"lng":103.899211,"line":"DTL"},
  {"code":"DT28","name":"Kaki Bukit","lat":1.334967,"lng":103.908459,"line":"DTL"},
  {"code":"DT29","name":"Bedok North","lat":1.334742,"lng":103.917978,"line":"DTL"},
  {"code":"DT30","name":"Bedok Reservoir","lat":1.336608,"lng":103.932235,"line":"DTL"},
  {"code":"DT31","name":"Tampines West","lat":1.345515,"lng":103.938437,"line":"DTL"},
  {"code":"DT32","name":"Tampines","lat":1.353284,"lng":103.945229,"line":"DTL"},
  {"code":"DT33","name":"Tampines East","lat":1.356191,"lng":103.954634,"line":"DTL"},
  {"code":"DT34","name":"Upper Changi","lat":1.341739,"lng":103.961473,"line":"DTL"},
  {"code":"DT35","name":"Expo","lat":1.335469,"lng":103.962329,"line":"DTL"},
  {"code":"TE1","name":"Woodlands North","lat":1.447782,"lng":103.785136,"line":"TEL"},
  {"code":"TE2","name":"Woodlands","lat":1.436819,"lng":103.786528,"line":"TEL"},
  {"code":"TE3","name":"Woodlands South","lat":1.427318,"lng":103.793264,"line":"TEL"},
  {"code":"TE4","name":"Springleaf","lat":1.397581,"lng":103.817857,"line":"TEL"},
  {"code":"TE5","name":"Lentor","lat":1.385506,"lng":103.835744,"line":"TEL"},
  {"code":"TE6","name":"Mayflower","lat":1.371463,"lng":103.836568,"line":"TEL"},
  {"code":"TE7","name":"Bright Hill","lat":1.363290,"lng":103.832962,"line":"TEL"},
  {"code":"TE8","name":"Upper Thomson","lat":1.354416,"lng":103.832898,"line":"TEL"},
  {"code":"TE9","name":"Caldecott","lat":1.337246,"lng":103.839505,"line":"TEL"},
  {"code":"TE11","name":"Stevens","lat":1.320066,"lng":103.826026,"line":"TEL"},
  {"code":"TE12","name":"Napier","lat":1.306782,"lng":103.817682,"line":"TEL"},
  {"code":"TE13","name":"Orchard Boulevard","lat":1.302196,"lng":103.824244,"line":"TEL"},
  {"code":"TE14","name":"Orchard","lat":1.302422,"lng":103.835312,"line":"TEL"},
  {"code":"TE15","name":"Great World","lat":1.293309,"lng":103.831828,"line":"TEL"},
  {"code":"TE16","name":"Havelock","lat":1.288599,"lng":103.833596,"line":"TEL"},
  {"code":"TE17","name":"Outram Park","lat":1.280225,"lng":103.839486,"line":"TEL"},
  {"code":"TE18","name":"Maxwell","lat":1.280535,"lng":103.843872,"line":"TEL"},
  {"code":"TE19","name":"Shenton Way","lat":1.277717,"lng":103.850462,"line":"TEL"},
  {"code":"TE20","name":"Marina Bay","lat":1.276427,"lng":103.854592,"line":"TEL"},
  {"code":"TE22","name":"Gardens by the Bay","lat":1.278915,"lng":103.867295,"line":"TEL"}
]